City_ID,City,Lat,Lon,Max Temp,Humidity,Cloudiness,Wind Speed,Country,Date
0,rikitea,-23.1203,-134.9692,79.41,72,93,4.79,PF,1680219593
1,punta arenas,-53.15,-70.9167,42.91,61,20,14.97,CL,1680219070
2,ushuaia,-54.8,-68.3,38.86,70,0,5.75,AR,1680219593
3,atuona,-9.8,-139.0333,80.73,73,4,14.43,PF,1680219593
4,mana,5.6592,-53.7767,77.13,86,63,8.9,GF,1680219365
5,cururupu,-1.8283,-44.8683,73.99,98,100,2.28,BR,1680219366
6,albany,42.6001,-73.9662,34.59,43,34,7.16,US,1680219457
7,kamenka,51.3223,42.7678,34.57,71,67,14.94,RU,1680219366
8,kaitangata,-46.2817,169.8464,62.55,65,66,5.53,NZ,1680219594
9,joshimath,30.5667,79.5667,47.23,93,100,6.76,IN,1680219891
10,castro,-24.7911,-50.0119,64.13,92,46,2.57,BR,1680219594
11,ganzhou,28.8184,115.4327,59.29,87,80,1.66,CN,1680219376
12,panuco,22.05,-98.1667,78.98,60,99,15.32,MX,1680219594
13,mount isa,-20.7333,139.5,82.17,28,19,6.91,AU,1680219594
14,cockburn town,21.4612,-71.1419,77.99,75,1,14.25,TC,1680219594
15,panaba,21.2833,-88.2667,86.32,42,41,15.48,MX,1680219594
16,kamaishi,39.2667,141.8833,54.95,57,72,8.68,JP,1680219368
17,henties bay,-22.116,14.2845,57.24,94,12,2.26,NA,1680219368
18,rocha,-34.4833,-54.3333,63.61,92,100,4.21,UY,1680219595
19,butaritari,3.0707,172.7902,82.04,79,69,11.59,KI,1680219595
20,yankton,42.8711,-97.3973,49.12,61,0,12.66,US,1680219892
21,hermanus,-34.4187,19.2345,59.22,85,36,6.08,ZA,1680219595
22,karratha,-20.7377,116.8463,81.52,75,16,5.23,AU,1680219595
23,ekhabi,53.5102,142.9671,30.15,94,100,8.93,RU,1680219369
24,arica,-18.475,-70.3042,76.55,85,55,2.01,CL,1680219070
25,vangaindrano,-23.35,47.6,73.38,95,98,3.58,MG,1680219369
26,new norfolk,-42.7826,147.0587,59.92,73,98,1.99,AU,1680219370
27,busselton,-33.65,115.3333,67.1,69,100,21.14,AU,1680219596
28,dikson,73.5069,80.5464,-15.97,100,96,8.63,RU,1680219596
29,upernavik,72.7868,-56.1549,-20.88,90,31,5.68,GL,1680219457
30,vytegra,61.0064,36.4481,16.72,96,25,2.64,RU,1680219370
31,korampallam,8.7667,78.1,78.6,82,37,2.66,IN,1680219370
32,mar del plata,-38.0023,-57.5575,62.1,77,0,9.22,AR,1680219309
33,borgarnes,64.5383,-21.9206,41.05,88,88,4.38,IS,1680219371
34,isangel,-19.55,169.2667,84.31,84,40,0.0,VU,1680219597
35,lima,-12.0432,-77.0282,77.25,69,40,12.66,PE,1680219360
36,yellowknife,62.456,-114.3525,12.72,48,20,4.61,CA,1680219432
37,geraldton,-28.7667,114.6,66.61,94,0,10.36,AU,1680219089
38,saskylakh,71.9167,114.0833,-21.26,97,83,7.96,RU,1680219597
39,bredasdorp,-34.5322,20.0403,57.49,87,50,1.45,ZA,1680219597
40,ketchikan,55.3422,-131.6461,43.27,70,75,11.5,US,1680219335
41,airai,-8.9266,125.4092,62.78,93,100,2.8,TL,1680219597
42,san ignacio,17.1561,-89.0714,84.34,65,40,4.61,BZ,1680219372
43,murray bridge,-35.1167,139.2667,64.13,52,29,9.06,AU,1680219373
44,tiksi,71.6872,128.8694,-19.34,100,100,6.02,RU,1680219597
45,tautira,-17.7333,-149.15,80.65,73,100,4.45,PF,1680219598
46,salinopolis,-0.6136,-47.3561,81.59,80,78,14.9,BR,1680219373
47,mataura,-46.1927,168.8643,55.47,59,23,4.81,NZ,1680219598
48,ambilobe,-13.2,49.05,73.71,96,99,2.3,MG,1680219373
49,akyab,20.15,92.9,74.68,89,36,5.46,MM,1680219374
50,provideniya,64.3833,-173.3,21.36,58,0,15.99,RU,1680219598
51,acarau,-2.8856,-40.12,78.28,84,39,9.64,BR,1680219374
52,saint-philippe,-21.3585,55.7679,76.59,84,78,7.27,RE,1680219895
53,lishui,28.4604,119.9103,55.96,91,96,1.9,CN,1680219375
54,portobelo,9.55,-79.65,74.1,78,23,22.59,PA,1680219375
55,hobart,-42.8794,147.3294,60.26,72,75,13.8,AU,1680219598
56,gat,31.61,34.7642,54.28,57,66,15.08,IL,1680219895
57,quatre cocos,-20.2078,57.7625,80.71,85,43,11.77,MU,1680219375
58,sioux lookout,50.1001,-91.917,33.87,47,40,5.75,CA,1680219375
59,onalaska,43.8844,-91.2351,40.28,69,100,8.05,US,1680219376
60,bethel,41.3712,-73.414,41.49,37,35,1.99,US,1680219599
61,port alfred,-33.5906,26.891,62.69,80,46,6.98,ZA,1680219376
62,avarua,-21.2078,-159.775,84.25,84,40,13.8,CK,1680219599
63,saint-joseph,-21.3667,55.6167,76.48,85,78,6.04,RE,1680219376
64,nikolskoye,59.7035,30.7861,28.29,97,85,4.18,RU,1680219599
65,kapaa,22.0752,-159.319,82.38,77,0,13.8,US,1680219599
66,severo-kurilsk,50.6789,156.125,34.77,72,4,6.44,RU,1680219538
67,victoria,22.2855,114.1577,70.43,92,100,8.01,HK,1680219357
68,camacha,33.0833,-16.3333,62.02,72,0,5.75,PT,1680219377
69,clyde river,70.4692,-68.5914,-1.97,84,100,13.8,CA,1680219378
70,carutapera,-1.195,-46.02,77.22,89,96,6.24,BR,1680219378
71,santa cruz,-17.8,-63.1667,82.45,69,40,5.75,BO,1680219378
72,ankara,39.9199,32.8543,27.21,71,0,5.75,TR,1680219103
73,mallapuram,11.9667,78.25,74.08,73,62,2.84,IN,1680219378
74,hithadhoo,-0.6,73.0833,82.02,77,14,8.48,MV,1680219600
75,lamu,-2.2717,40.902,82.62,76,10,10.25,KE,1680219379
76,nueva loja,0.0847,-76.8828,72.68,95,87,1.88,EC,1680219379
77,lavrentiya,65.5833,-171.0,18.59,74,100,9.69,RU,1680219601
78,simao,22.7886,100.9748,60.33,50,0,1.86,CN,1680219379
79,mehamn,71.0357,27.8492,19.31,86,20,13.8,NO,1680219380
80,east london,-33.0153,27.9116,60.28,76,6,7.29,ZA,1680219380
81,shirochanka,46.6497,38.3978,38.7,85,100,28.95,RU,1680219380
82,mangla,31.8931,72.3817,61.43,84,100,7.34,PK,1680219380
83,tasiilaq,65.6145,-37.6368,24.96,95,100,8.3,GL,1680219602
84,tongliao,43.6125,122.2653,56.01,30,0,9.06,CN,1680219381
85,agirish,61.9247,63.0231,19.56,90,74,9.57,RU,1680219381
86,kuzhithurai,8.3167,77.1833,83.88,95,28,3.94,IN,1680219381
87,vaini,-21.2,-175.2,84.36,74,20,8.05,TO,1680219602
88,coquimbo,-29.9533,-71.3436,64.13,77,0,6.91,CL,1680219304
89,porto walter,-8.2686,-72.7439,73.62,97,100,1.88,BR,1680219382
90,sambava,-14.2667,50.1667,77.4,87,67,10.71,MG,1680219382
91,marand,38.4329,45.7749,45.61,59,68,9.01,IR,1680219382
92,saldanha,-33.0117,17.9442,60.85,83,26,18.9,ZA,1680219603
93,lugovoy,42.9472,72.7644,50.59,79,80,4.9,KZ,1680219383
94,ostrovnoy,68.0531,39.5131,13.19,92,42,13.89,RU,1680219383
95,filingue,14.3521,3.3168,81.41,11,47,11.97,NE,1680219383
96,shimoda,34.6667,138.95,59.36,69,100,1.45,JP,1680219384
97,rocky mountain house,52.3668,-114.9188,30.31,74,89,12.66,CA,1680219384
98,sovetsk,55.0839,21.8785,42.3,96,100,10.27,RU,1680219384
99,auki,-8.7676,160.7034,83.48,73,82,2.86,SB,1680219605
100,hasaki,35.7333,140.8333,59.4,68,98,11.43,JP,1680219606
101,gushikawa,26.3544,127.8686,71.19,88,100,10.36,JP,1680219385
102,lompoc,34.6391,-120.4579,58.78,71,40,14.97,US,1680219513
103,hami,42.8,93.45,50.49,23,26,7.11,CN,1680219385
104,longyearbyen,78.2186,15.6401,22.84,80,75,1.14,SJ,1680219607
105,mahanoro,-19.9,48.8,74.3,97,96,0.29,MG,1680219385
106,moree,-29.4667,149.85,68.94,36,100,8.97,AU,1680219386
107,belmonte,-15.8631,-38.8828,72.32,86,0,1.68,BR,1680219386
108,newcastle,-32.9272,151.7765,69.1,55,0,18.41,AU,1680219386
109,udachnyy,66.4167,112.4,-8.55,76,100,8.9,RU,1680219387
110,lucapa,-8.4192,20.7447,64.44,96,100,3.27,AO,1680219387
111,oussouye,12.485,-16.5469,75.38,78,1,5.48,SN,1680219387
112,hilo,19.7297,-155.09,78.24,88,100,11.5,US,1680219561
113,mareeba,-17.0,145.4333,81.48,79,58,4.16,AU,1680219166
114,touros,-5.1989,-35.4608,78.93,81,80,11.79,BR,1680219245
115,ixtapa,20.7,-105.2,76.23,57,100,9.22,MX,1680219388
116,puerto ayora,-0.7393,-90.3518,77.56,97,65,5.64,EC,1680219388
117,xining,36.6167,101.7667,38.19,59,1,3.89,CN,1680219388
118,surgut,61.25,73.4167,3.09,84,0,4.47,RU,1680219388
119,meulaboh,4.1363,96.1285,73.92,91,92,3.13,ID,1680219904
120,chifeng,42.2683,118.9636,54.36,28,0,5.5,CN,1680219389
121,flinders,-34.5833,150.8552,71.06,57,0,5.99,AU,1680219905
122,ponta delgada,37.7333,-25.6667,61.52,100,75,3.44,PT,1680219389
123,luau,-10.7073,22.2247,64.33,98,100,1.7,AO,1680219389
124,kamina,-8.7386,24.9906,63.66,98,100,4.79,CD,1680219389
125,iqaluit,63.7506,-68.5145,-0.31,84,40,0.0,CA,1680219905
126,saint george,37.1041,-113.5841,47.43,59,40,5.99,US,1680219314
127,bonthe,7.5264,-12.505,78.42,80,61,5.66,SL,1680219390
128,georgetown,5.4112,100.3354,78.73,100,20,2.3,MY,1680219628
129,ambon,-3.6954,128.1814,80.74,89,40,4.61,ID,1680219390
130,bluff,-46.6,168.3333,55.8,75,30,5.82,NZ,1680219905
131,qui nhon,13.7667,109.2333,76.42,86,87,4.59,VN,1680219391
132,norman wells,65.282,-126.8329,19.44,58,20,17.27,CA,1680219391
133,peniche,39.3558,-9.3811,62.11,94,100,12.15,PT,1680219906
134,alto paraguai,-14.5136,-56.4825,75.22,75,56,2.55,BR,1680219391
135,vestmannaeyjar,63.4427,-20.2734,41.31,87,100,11.01,IS,1680219906
136,souillac,-20.5167,57.5167,80.98,83,40,11.5,MU,1680219906
137,mahebourg,-20.4081,57.7,80.89,83,40,11.5,MU,1680219738
138,prince rupert,54.3161,-130.3201,40.69,93,100,6.91,CA,1680219303
139,nanortalik,60.1432,-45.2371,20.79,84,4,3.6,GL,1680219756
140,ulladulla,-35.35,150.4667,70.66,40,0,3.29,AU,1680219393
141,enid,36.3956,-97.8784,60.96,94,100,21.85,US,1680219393
142,chinsali,-10.5414,32.0816,62.46,97,100,2.39,ZM,1680219251
143,coihaique,-45.5752,-72.0662,45.21,70,20,0.0,CL,1680219762
144,puerto colombia,10.9878,-74.9547,78.89,84,2,34.52,CO,1680219394
145,mwene-ditu,-7.0,23.45,65.44,99,100,4.23,CD,1680219394
146,alofi,-19.0595,-169.9187,84.09,79,40,10.36,NU,1680219394
147,hovd,48.0056,91.6419,36.46,24,0,15.01,MN,1680219907
148,goryachiy klyuch,44.6308,39.13,35.22,71,100,9.42,RU,1680219394
149,jamestown,42.097,-79.2353,37.04,48,0,5.75,US,1680219722
150,la ronge,55.1001,-105.2842,26.85,36,75,5.75,CA,1680219395
151,tual,-5.6667,132.75,83.16,74,100,7.81,ID,1680219395
152,elizabeth city,36.2946,-76.2511,50.02,66,0,9.22,US,1680219395
153,ratnagiri,16.9833,73.3,73.76,82,9,5.88,IN,1680219395
154,tchibanga,-2.85,11.0333,72.1,96,100,2.59,GA,1680219396
155,port lincoln,-34.7333,135.8667,65.55,60,47,8.52,AU,1680219396
156,ribeira grande,38.5167,-28.7,59.77,89,100,3.0,PT,1680219396
157,pacific grove,36.6177,-121.9166,57.24,68,40,12.66,US,1680219125
158,shingu,33.7333,135.9833,60.31,58,100,4.05,JP,1680219396
159,avera,33.194,-82.5271,69.85,54,0,4.76,US,1680219397
160,meadow lake,34.8014,-106.5436,67.35,12,18,29.95,US,1680219397
161,tulun,54.5611,100.5792,19.18,84,100,13.18,RU,1680219397
162,yeppoon,-23.1333,150.7333,78.58,60,3,5.39,AU,1680219398
163,codrington,-38.2667,141.9667,60.17,73,100,9.1,AU,1680219398
164,ponta do sol,32.6667,-17.1,73.13,27,10,3.91,PT,1680219233
165,tuatapere,-46.1333,167.6833,63.81,46,52,3.51,NZ,1680219909
166,jensen beach,27.2545,-80.2298,76.08,64,40,10.36,US,1680219398
167,jatara,25.0167,79.05,71.4,59,98,13.38,IN,1680219399
168,san patricio,28.017,-97.5169,78.75,84,100,18.68,US,1680219399
169,morrinhos,-17.7311,-49.0994,68.54,65,30,3.69,BR,1680219399
170,kavieng,-2.5744,150.7967,82.51,72,99,5.91,PG,1680219910
171,cabo san lucas,22.8909,-109.9124,87.1,52,20,3.44,MX,1680219276
172,torbay,47.6666,-52.7314,31.28,85,20,5.75,CA,1680219910
173,yulara,-25.2406,130.9889,69.51,48,90,16.53,AU,1680219746
174,marsh harbour,26.5412,-77.0636,72.99,63,17,19.46,BS,1680219342
175,chuy,-33.6971,-53.4616,67.69,90,100,8.34,UY,1680219911
176,cape town,-33.9258,18.4232,62.91,76,20,11.99,ZA,1680219325
177,khatanga,71.9667,102.5,-11.92,97,99,10.09,RU,1680219911
178,balotra,25.8333,72.2333,73.85,49,86,4.59,IN,1680219401
179,faanui,-16.4833,-151.75,82.36,73,97,8.7,PF,1680219911
180,arcos,-20.2819,-45.5394,71.58,73,64,3.31,BR,1680219402
181,northam,51.0333,-4.2167,51.62,95,100,29.06,GB,1680219402
182,babu,24.4167,111.5167,62.22,93,100,1.54,CN,1680219402
183,talnakh,69.4865,88.3972,-20.79,98,71,4.21,RU,1680219911
184,fukue,32.6881,128.8419,59.36,67,0,10.36,JP,1680219402
185,maniitsoq,65.4167,-52.9,10.36,70,0,8.39,GL,1680219403
186,bambous virieux,-20.3428,57.7575,80.85,83,40,11.5,MU,1680219403
187,barrow,71.2906,-156.7887,6.82,78,0,6.91,US,1680219912
188,constitucion,-35.3333,-72.4167,58.75,56,63,12.15,CL,1680219912
189,carnarvon,-24.8667,113.6333,74.23,70,75,5.19,AU,1680219722
190,whitehaven,54.549,-3.5841,49.66,84,98,4.0,GB,1680219112
191,hokitika,-42.7167,170.9667,61.25,68,1,11.1,NZ,1680219405
192,ermelo,-26.5333,29.9833,54.81,94,66,7.94,ZA,1680219405
193,itarema,-2.9248,-39.9167,82.36,75,28,14.81,BR,1680219913
194,shubarkuduk,49.1447,56.4872,50.59,67,100,25.14,KZ,1680219406
195,bata,1.8639,9.7658,81.05,78,61,8.79,GQ,1680219406
196,qaanaaq,77.484,-69.3632,-12.01,62,22,5.57,GL,1680219913
197,portales,34.1862,-103.3344,78.33,10,10,29.8,US,1680219406
198,pitimbu,-7.4706,-34.8086,77.59,74,20,9.62,BR,1680219407
199,kruisfontein,-34.0033,24.7314,58.89,92,16,4.81,ZA,1680219914
200,grindavik,63.8424,-22.4338,40.95,93,75,14.97,IS,1680219914
201,haines junction,60.7522,-137.5108,30.15,69,100,2.3,CA,1680219407
202,the valley,18.217,-63.0578,78.94,69,20,9.22,AI,1680219407
203,lebu,-37.6167,-73.65,54.88,78,38,17.02,CL,1680219916
204,eyl,7.9803,49.8164,79.07,77,9,6.42,SO,1680219408
205,mackenzie,55.2999,-123.1698,46.62,36,0,8.05,CA,1680219408
206,los llanos de aridane,28.6585,-17.9182,76.75,18,0,12.66,ES,1680219408
207,goderich,43.7501,-81.7165,37.9,44,38,10.36,CA,1680219916
208,half moon bay,37.4636,-122.4286,58.59,67,75,17.27,US,1680219409
209,gustrow,53.7972,12.1734,50.32,93,50,8.05,DE,1680219409
210,dakar,14.6937,-17.4441,72.48,94,0,6.91,SN,1680219409
211,sao filipe,14.8961,-24.4956,74.28,77,45,7.11,CV,1680219410
212,tarrafal,15.2833,-23.7667,72.39,82,26,12.03,CV,1680219410
213,nantucket,41.2835,-70.0995,39.34,47,0,5.75,US,1680219410
214,fortuna,40.5982,-124.1573,53.92,68,53,4.0,US,1680219769
215,dingle,10.9995,122.6711,81.34,76,93,9.42,PH,1680219801
216,manokwari,-0.8667,134.0833,82.2,74,98,6.02,ID,1680219917
217,banepa,27.6298,85.5214,55.13,76,40,2.3,NP,1680219411
218,bowen,-20.0167,148.2333,87.49,58,35,4.94,AU,1680219412
219,kaeo,-35.1,173.7833,68.32,63,22,7.65,NZ,1680219412
220,hambantota,6.1241,81.1185,73.67,95,3,2.68,LK,1680219412
221,laguna,38.421,-121.4238,60.94,56,75,11.5,US,1680219412
222,havre-saint-pierre,50.2334,-63.5986,32.0,93,100,13.8,CA,1680219412
223,buin,-33.7333,-70.75,79.43,19,5,3.85,CL,1680219413
224,dubbo,-32.25,148.6167,60.93,59,42,4.61,AU,1680219413
225,awbari,26.5921,12.7805,62.92,30,0,7.0,LY,1680219413
226,tabou,4.423,-7.3528,79.12,87,100,5.01,CI,1680219413
227,alice springs,-23.7,133.8833,62.15,94,100,13.8,AU,1680219414
228,kalabo,-14.97,22.6814,67.46,89,100,4.12,ZM,1680219251
229,nova olinda do norte,-3.8881,-59.0942,73.44,99,99,2.48,BR,1680219414
230,kigonsera,-10.8,35.05,62.67,98,100,2.46,TZ,1680219415
231,sibolga,1.7427,98.7792,74.43,84,100,3.42,ID,1680219415
232,kuusamo,65.9667,29.1833,15.84,62,0,12.66,FI,1680219416
233,chokurdakh,70.6333,147.9167,-1.98,94,100,9.17,RU,1680219919
234,kidal,18.4411,1.4078,78.67,8,0,16.2,ML,1680219416
235,russkiy aktash,55.0384,52.1214,33.19,79,99,13.13,RU,1680219416
236,pangnirtung,66.1451,-65.7125,5.4,97,100,1.79,CA,1680219749
237,aksarayskiy,46.7924,48.0119,38.98,59,100,17.22,RU,1680219417
238,chumikan,54.7183,135.315,28.49,86,71,9.42,RU,1680219417
239,cuencame,24.8711,-103.6964,83.41,14,100,20.89,MX,1680219417
240,lusambo,-4.9667,23.45,69.37,100,100,0.94,CD,1680219417
241,uarini,-2.99,-65.1083,75.74,95,87,2.82,BR,1680219418
242,atar,20.5169,-13.0499,86.83,11,98,6.91,MR,1680219418
243,pak phanang,8.3511,100.202,75.22,85,66,3.49,TH,1680219418
244,zmeinogorsk,51.1567,82.195,18.48,85,39,10.78,RU,1680219418
245,minab,27.1467,57.0801,66.52,82,1,0.0,IR,1680219419
246,dongsheng,39.8161,109.9776,48.33,33,100,18.79,CN,1680219419
247,el reno,35.5323,-97.955,64.58,91,100,29.93,US,1680219218
248,saint-francois,46.4154,3.9054,52.68,82,0,5.75,FR,1680219294
249,jhanjharpur,26.2667,86.2833,73.33,46,26,10.56,IN,1680219419
250,balabac,7.9868,117.0645,81.39,76,99,5.61,PH,1680219420
251,uruzgan,32.8333,66.0,50.02,80,100,1.5,AF,1680219420
252,trelew,-43.249,-65.3051,49.15,58,81,19.98,AR,1680219420
253,thompson,55.7435,-97.8558,19.56,42,20,10.36,CA,1680219794
254,bathsheba,13.2167,-59.5167,79.41,69,75,16.11,BB,1680219421
255,paptalaya,15.5,-84.3167,76.89,75,48,6.04,HN,1680219421
256,leningradskiy,69.3833,178.4167,4.93,87,17,7.96,RU,1680219421
257,palm city,27.1678,-80.2662,76.08,62,40,10.36,US,1680219421
258,bengkulu,-3.8004,102.2655,73.27,88,100,2.95,ID,1680219421
259,dwarka,22.2394,68.9678,75.25,75,0,11.23,IN,1680219422
260,san jose de sisa,-6.6167,-76.6915,73.92,98,98,2.66,PE,1680219422
261,riyadh,24.6877,46.7219,71.74,24,79,13.44,SA,1680219422
262,okato,-39.2,173.8833,65.17,69,73,13.0,NZ,1680219422
263,tomatlan,19.9333,-105.25,85.78,26,100,5.66,MX,1680219422
264,kozhva,65.1073,57.0459,30.83,85,100,16.44,RU,1680219423
265,lokosovo,61.1333,74.8167,1.22,99,8,3.67,RU,1680219423
266,xichang,27.8964,102.2634,54.68,77,72,2.46,CN,1680219423
267,esperance,-33.8667,121.9,62.71,71,21,12.21,AU,1680219922
268,at-bashi,41.1702,75.8106,29.82,77,79,2.04,KG,1680219423
269,den helder,52.9599,4.7593,50.95,93,75,17.0,NL,1680219359
270,kisangani,0.5167,25.2,68.49,100,100,2.21,CD,1680219424
271,gamba,-2.65,10.0,75.92,90,100,4.85,GA,1680219424
272,juneau,58.3019,-134.4197,41.41,83,100,17.27,US,1680219244
273,kawalu,-7.3817,108.2082,73.38,91,100,2.06,ID,1680219424
274,heishan,41.6892,122.1128,52.92,47,1,4.32,CN,1680219425
275,dudinka,69.4058,86.1778,-18.38,100,64,3.22,RU,1680219425
276,muros,42.7762,-9.0603,60.1,83,100,18.25,ES,1680219752
277,mzimba,-11.9,33.6,60.62,94,99,3.06,MW,1680219425
278,russell,32.3502,-85.1999,73.0,31,0,10.36,US,1680219425
279,mamakan,57.8161,114.0028,33.67,96,100,2.53,RU,1680219426
280,vorukh,39.8494,70.5838,51.64,51,99,4.94,TJ,1680219426
281,okhotsk,59.3833,143.3,26.6,91,100,9.13,RU,1680219426
282,hamilton,39.1834,-84.5333,60.75,32,0,13.8,US,1680219630
283,bubaque,11.2833,-15.8333,76.95,72,3,14.99,GW,1680219427
284,petropavlovsk-kamchatskiy,53.0452,158.6483,36.19,65,0,8.95,RU,1680219427
285,patacamaya,-17.2333,-67.9167,49.3,73,74,7.02,BO,1680219427
286,hobyo,5.3505,48.5268,80.87,77,25,7.34,SO,1680219427
287,ancud,-41.8697,-73.8203,47.25,74,94,5.21,CL,1680219924
288,buala,-8.145,159.5921,84.99,66,78,2.77,SB,1680219428
289,college,64.8569,-147.8028,35.1,55,75,3.44,US,1680219428
290,asosa,10.0667,34.5333,69.03,13,42,4.74,ET,1680219428
291,cherskiy,68.75,161.3,16.57,86,99,10.33,RU,1680219924
292,bassila,9.0081,1.6654,81.97,44,94,4.68,BJ,1680219429
293,ilulissat,69.2167,-51.1,-0.38,78,3,4.61,GL,1680219925
294,zhigansk,66.7697,123.3711,-1.23,81,98,19.48,RU,1680219429
295,barranca de upia,4.5696,-72.9668,82.54,54,99,3.4,CO,1680219429
296,ypsonas,34.6884,32.9574,49.28,61,5,2.3,CY,1680219430
297,aubel,50.7019,5.8581,51.33,95,72,16.62,BE,1680219430
298,buchanan,5.8808,-10.0467,78.67,88,36,4.81,LR,1680219430
299,kodiak,57.79,-152.4072,38.71,70,100,11.5,US,1680219925
300,mokhsogollokh,61.4681,128.9203,24.24,83,100,7.78,RU,1680219431
301,north ridgeville,41.3895,-82.019,48.49,64,0,11.5,US,1680219300
302,cidreira,-30.1811,-50.2056,73.63,80,90,4.76,BR,1680219431
303,tumpat,6.1978,102.171,75.18,94,20,0.0,MY,1680219432
304,sijunjung,-0.6876,100.9537,71.64,94,97,2.06,ID,1680219432
305,avanigadda,16.0215,80.9181,78.42,78,59,8.7,IN,1680219432
306,vanimo,-2.6741,141.3028,84.29,67,99,2.42,PG,1680219432
307,deputatskiy,69.3,139.9,-5.78,96,100,3.85,RU,1680219432
308,yandyki,45.7691,47.1258,39.06,49,100,15.19,RU,1680219433
309,ocos,14.5094,-92.1933,87.98,63,5,6.08,GT,1680219433
310,inirida,3.8653,-67.9239,77.95,83,75,1.79,CO,1680219433
311,san carlos de bariloche,-41.1456,-71.3082,44.35,42,20,8.05,AR,1680219368
312,kouango,4.9934,19.9619,71.83,90,100,2.17,CF,1680219434
313,porto franco,-6.3383,-47.3992,75.09,92,74,1.79,BR,1680219434
314,narrabri,-30.3167,149.7833,65.52,62,99,1.99,AU,1680219434
315,bereznik,62.8551,42.7072,29.34,97,100,5.35,RU,1680219435
316,abu dhabi,24.4667,54.3667,75.94,70,0,0.0,AE,1680219321
317,oranjemund,-28.55,16.4333,59.7,92,6,14.2,NA,1680219297
318,chapais,49.7834,-74.8492,19.18,94,99,2.95,CA,1680219435
319,qaqortoq,60.7167,-46.0333,19.04,79,1,5.32,GL,1680219435
320,egvekinot,66.3167,-179.1667,12.87,83,56,2.04,RU,1680219436
321,vardo,70.3705,31.1107,19.38,86,100,11.5,NO,1680219928
322,karlskoga,59.3267,14.5239,29.52,95,100,8.97,SE,1680219436
323,tabuk,17.4189,121.4443,79.07,87,54,2.08,PH,1680219436
324,tuktoyaktuk,69.4541,-133.0374,3.2,72,0,18.41,CA,1680219928
325,eureka,40.8021,-124.1637,58.75,68,17,3.0,US,1680219437
326,luebo,-5.35,21.4167,68.85,100,100,1.25,CD,1680219437
327,isiolo,0.3546,37.5822,70.48,70,77,4.32,KE,1680219437
328,wattegama,6.7989,81.4808,72.27,86,11,3.22,LK,1680219437
329,matara,5.9485,80.5353,75.4,91,10,3.02,LK,1680219437
330,salalah,17.0151,54.0924,77.09,65,0,4.61,OM,1680219438
331,vallenar,-28.5708,-70.7581,71.89,59,0,2.68,CL,1680219438
332,elverum,60.8819,11.5623,21.54,98,100,2.75,NO,1680219438
333,pevek,69.7008,170.3133,10.33,79,100,14.36,RU,1680219929
334,san jose,37.3394,-121.895,60.15,58,40,11.01,US,1680219401
335,gweta,-20.1833,25.2333,72.3,59,60,11.7,BW,1680219439
336,clarence town,-32.5833,151.7833,68.95,43,0,8.97,AU,1680219439
337,sinjhoro,26.0303,68.809,69.87,49,12,4.81,PK,1680219439
338,katsuura,35.1333,140.3,60.8,75,100,10.2,JP,1680219728
339,arrecife,28.963,-13.5477,78.78,29,0,25.32,ES,1680219439
340,stornoway,58.2093,-6.3865,43.93,93,98,0.0,GB,1680219440
341,pailon,-17.65,-62.75,83.88,91,82,3.98,BO,1680219440
342,assiniboia,49.6334,-105.9845,28.22,64,65,11.5,CA,1680219440
343,bardiyah,31.7561,25.0865,55.92,66,0,10.89,LY,1680219440
344,floro,61.5996,5.0328,37.36,81,100,3.44,NO,1680219441
345,were ilu,10.6,39.4333,53.91,83,62,3.04,ET,1680219441
346,marrakesh,31.6315,-8.0083,73.47,31,0,4.61,MA,1680219441
347,san ramon,37.7799,-121.978,58.91,62,100,13.8,US,1680219347
348,alta floresta,-9.8756,-56.0861,78.62,89,100,2.3,BR,1680219441
349,pinawa,50.1489,-95.8811,27.72,84,97,3.8,CA,1680219442
350,guerrero negro,27.9769,-114.0611,60.98,51,3,19.53,MX,1680219442
351,arraial do cabo,-22.9661,-42.0278,75.22,90,88,10.4,BR,1680219442
352,kohlu,29.8962,69.252,55.26,73,100,1.88,PK,1680219442
353,caucaia,-3.7361,-38.6531,82.04,72,20,5.75,BR,1680219443
354,santa maria,-29.6842,-53.8069,72.7,94,0,3.44,BR,1680219443
355,korla,41.7597,86.1469,54.21,29,73,5.57,CN,1680219931
356,aykhal,66.0,111.5,-7.42,98,100,8.37,RU,1680219443
357,price,39.5994,-110.8107,40.26,45,75,9.22,US,1680219443
358,ulukulevo,54.4355,56.3221,35.85,60,83,9.22,RU,1680219443
359,oyama,36.3,139.8,58.59,70,71,2.66,JP,1680219444
360,palmer,42.1584,-72.3287,37.0,32,20,14.97,US,1680219444
361,aryiropoulion,39.8333,22.3,39.16,81,0,4.61,GR,1680219444
362,najran,17.4924,44.1277,74.05,51,38,4.5,SA,1680219444
363,richards bay,-28.783,32.0377,65.68,91,100,6.04,ZA,1680219444
364,owando,-0.4819,15.8999,70.66,98,100,2.42,CG,1680219445
365,reyes,-14.3167,-67.3833,74.55,98,50,0.36,BO,1680219445
366,stephenville,32.2207,-98.2023,72.16,93,100,16.11,US,1680219445
367,kupang,-10.1667,123.5833,79.38,83,75,8.05,ID,1680219445
368,svetlogorsk,52.6333,29.7333,27.21,93,28,6.06,BY,1680219446
369,baykit,61.67,96.37,-9.18,100,93,3.2,RU,1680219446
370,lagoa,39.05,-27.9833,56.23,77,100,4.83,PT,1680219937
371,shangrao,28.4532,117.9686,54.57,92,99,3.91,CN,1680219446
372,saint anthony,45.0205,-93.218,37.02,70,100,16.11,US,1680219446
373,praia da vitoria,38.7333,-27.0667,61.05,88,0,1.7,PT,1680219447
374,sao joao da barra,-21.6403,-41.0511,78.89,88,100,13.73,BR,1680219447
375,pringsewu,-5.3582,104.9744,73.35,92,100,1.72,ID,1680219783
376,pudozh,61.8099,36.5345,13.6,98,47,1.99,RU,1680219447
377,sarangani,5.4033,125.4636,80.87,77,100,5.66,PH,1680219447
378,port elizabeth,-33.918,25.5701,60.1,83,0,6.91,ZA,1680219448
379,walvis bay,-22.9575,14.5053,57.22,95,1,0.81,NA,1680219448
380,turayf,31.6725,38.6637,41.25,65,40,20.71,SA,1680219448
381,nandi,13.3855,77.6984,71.2,59,100,3.58,IN,1680219448
382,nishihara,26.1842,127.7558,71.26,88,75,11.5,JP,1680219448
383,kloulklubed,7.0419,134.2556,79.3,71,54,5.32,PW,1680219449
384,yumen,40.2833,97.2,43.65,22,3,8.01,CN,1680219938
385,port macquarie,-31.4333,152.9167,70.9,42,0,2.15,AU,1680219338
386,qujing,25.4833,103.7833,50.88,81,37,4.74,CN,1680219449
387,banda aceh,5.5577,95.3222,81.79,73,97,0.89,ID,1680219450
388,ust-nera,64.5667,143.2,25.02,90,100,8.59,RU,1680219450
389,skjervoy,70.0311,20.9714,33.8,97,100,41.05,NO,1680219450
390,guiratinga,-16.3494,-53.7583,76.14,64,80,4.14,BR,1680219450
391,nemuro,43.3236,145.575,38.35,90,100,17.74,JP,1680219938
392,verkhnevilyuysk,63.4453,120.3167,4.23,92,64,5.86,RU,1680219451
393,kenai,60.5544,-151.2583,35.65,77,100,5.75,US,1680219192
394,nelson bay,-32.7167,152.15,69.1,55,0,13.0,AU,1680219451
395,boden,65.8252,21.6886,28.4,79,100,10.78,SE,1680219451
396,toamasina,-18.1667,49.3833,75.2,100,40,2.3,MG,1680219451
397,waddan,29.1614,16.139,58.51,29,0,7.11,LY,1680219452
398,mtama,-10.3,39.3667,72.12,99,52,0.22,TZ,1680219452
399,chino valley,34.7575,-112.4538,48.61,42,75,19.57,US,1680219452
400,bilibino,68.0546,166.4372,14.45,74,100,2.51,RU,1680219939
401,hualmay,-11.0964,-77.6139,75.11,86,83,10.94,PE,1680219453
402,axim,4.8699,-2.2405,79.65,86,100,5.66,GH,1680219453
403,tomohon,1.3346,124.8392,74.34,76,84,2.33,ID,1680219453
404,sobolevo,54.4299,31.8996,27.03,93,14,4.12,RU,1680219453
405,sakaiminato,35.55,133.2333,51.78,76,75,2.3,JP,1680219453
406,sorland,67.667,12.6934,33.66,55,91,26.96,NO,1680219453
407,maragogi,-9.0122,-35.2225,77.47,83,12,6.82,BR,1680219454
408,batouri,4.4333,14.3667,69.89,90,100,2.04,CM,1680219454
409,aswan,24.0934,32.907,61.9,36,0,8.05,EG,1680219454
410,batagay,67.6333,134.6333,2.97,93,100,8.41,RU,1680219455
411,simi,9.5667,-12.35,79.83,78,30,5.28,SL,1680219455
412,sitka,57.0531,-135.33,39.09,70,100,13.8,US,1680219940
413,kamareddi,18.3167,78.35,76.05,51,30,7.7,IN,1680219455
414,weligama,5.9667,80.4167,77.02,88,24,2.93,LK,1680219455
415,urumqi,43.801,87.6005,47.35,43,0,4.47,CN,1680219456
416,puerto baquerizo moreno,-0.9,-89.6,79.95,74,13,6.55,EC,1680219456
417,ayan,56.45,138.1667,29.1,84,77,2.8,RU,1680219941
418,beringovskiy,63.05,179.3167,15.71,78,11,7.63,RU,1680219456
419,asfi,32.2994,-9.2372,63.72,60,3,13.29,MA,1680219456
420,sipe sipe,-17.45,-66.3833,68.49,87,99,2.15,BO,1680219456
421,mahina,-17.5065,-149.489,87.57,66,75,9.22,PF,1680219457
422,sidi ali,36.0998,0.4206,58.78,55,27,6.85,DZ,1680219457
423,vila velha,-20.3297,-40.2925,81.95,79,0,6.91,BR,1680219457
424,kahului,20.8947,-156.47,84.22,54,20,9.22,US,1680219782
425,north bend,43.4065,-124.2243,51.24,78,100,10.36,US,1680219357
426,zilair,52.2332,57.4392,24.17,84,59,18.32,RU,1680219458
427,turukhansk,65.8167,87.9833,-25.28,100,78,4.09,RU,1680219942
428,evensk,61.95,159.2333,12.31,86,100,2.39,RU,1680219458
429,tet,47.5192,17.508,51.75,100,0,9.22,HU,1680219458
430,goya,-29.14,-59.2626,82.15,67,50,5.17,AR,1680219458
431,jasper,37.2001,-94.3502,69.85,49,100,19.57,US,1680219400
432,vila franca do campo,37.7167,-25.4333,61.21,97,100,8.61,PT,1680219459
433,ibotirama,-12.1853,-43.2206,78.15,55,94,1.68,BR,1680219459
434,lasa,46.6166,10.7002,47.03,97,99,0.27,IT,1680219459
435,zambezi,-13.5432,23.1047,67.3,87,94,1.57,ZM,1680219459
436,goundam,16.4145,-3.6708,79.61,8,1,9.64,ML,1680219459
437,pochutla,15.7432,-96.4661,87.62,56,51,5.1,MX,1680219460
438,havoysund,70.9963,24.6622,28.63,100,100,17.43,NO,1680219460
439,port-gentil,-0.7193,8.7815,80.56,89,40,3.44,GA,1680219943
440,nuristan,35.3,70.8333,24.64,93,100,6.31,AF,1680219460
441,la mana,-0.9333,-79.2167,74.34,93,98,1.83,EC,1680219460
442,watrous,51.6668,-105.4679,28.18,74,100,9.22,CA,1680219461
443,klaksvik,62.2266,-6.589,47.32,98,100,24.63,FO,1680219944
444,araouane,18.9048,-3.5265,77.65,9,0,11.56,ML,1680219461
445,liverpool,53.4106,-2.9779,52.34,89,75,12.66,GB,1680219461
446,kulu,39.0951,33.0799,24.64,73,28,11.61,TR,1680219461
447,asyut,27.181,31.1837,53.78,42,0,16.26,EG,1680219462
448,cananeia,-25.0147,-47.9267,75.13,92,44,5.1,BR,1680219462
449,calama,-22.4667,-68.9333,68.49,49,0,17.27,CL,1680219462
450,yabelo,4.8833,38.0833,59.5,83,43,5.84,ET,1680219462
451,rabo de peixe,37.8,-25.5833,60.31,100,75,3.44,PT,1680219462
452,labuhan,-6.8844,112.2051,79.18,84,100,4.27,ID,1680219463
453,bilma,18.6853,12.9164,74.35,14,66,11.43,NE,1680219463
454,chara,56.9064,118.2631,33.03,77,50,1.19,RU,1680219463
455,pathein,16.7833,94.7333,78.35,79,59,11.61,MM,1680219463
456,maymyo,22.0333,96.4667,67.14,35,69,4.16,MM,1680219463
457,teknaf,20.8624,92.3058,71.13,97,34,2.77,BD,1680219464
458,carmelo,-33.9892,-58.2856,66.7,86,79,8.23,UY,1680219464
459,tateyama,34.9833,139.8667,60.64,73,100,7.7,JP,1680219464
460,ylivieska,64.0833,24.55,14.88,91,28,10.56,FI,1680219464
461,wajid,3.8093,43.2471,78.48,65,72,14.25,SO,1680219464
462,batticaloa,7.7102,81.6924,75.56,86,70,5.08,LK,1680219465
463,carndonagh,55.25,-7.2667,49.24,96,89,5.01,IE,1680219465
464,nefteyugansk,61.0998,72.6035,5.27,99,47,4.81,RU,1680219465
465,campoverde,-8.4753,-74.8058,78.49,97,100,2.39,PE,1680219465
466,gambela,8.25,34.5833,82.36,38,57,2.53,ET,1680219465
467,tottori,35.5,134.2333,53.67,54,75,6.91,JP,1680219466
468,havelock,34.8791,-76.9013,57.2,70,0,10.36,US,1680219466
469,bontang,0.1333,117.5,75.83,92,100,5.7,ID,1680219466
470,coolum beach,-26.5333,153.1,79.34,46,97,2.93,AU,1680219466
471,bozeman,45.6796,-111.0386,35.01,79,75,3.44,US,1680219442
472,changli,39.7042,119.1506,59.76,35,0,6.33,CN,1680219467
473,saint-pierre,-21.3393,55.4781,77.58,83,0,3.44,RE,1680219397
474,praia,14.9215,-23.5087,72.14,78,0,9.22,CV,1680219467
475,kokkola,63.8385,23.1307,20.03,88,0,8.05,FI,1680219467
476,eydhafushi,5.1033,73.0708,81.55,74,71,8.81,MV,1680219468
477,beloha,-25.1667,45.05,68.77,93,22,5.01,MG,1680219783
478,thinadhoo,0.5333,72.9333,82.02,77,25,11.05,MV,1680219468
479,bonnyville,54.2668,-110.735,33.6,84,100,6.35,CA,1680219468
480,zalukokoazhe,43.9039,43.2156,24.96,68,38,3.18,RU,1680219469
481,chukhloma,58.7525,42.6825,34.68,100,100,3.24,RU,1680219469
482,tecoanapa,16.5167,-98.75,83.57,67,86,8.86,MX,1680219469
483,phalaborwa,-23.943,31.1411,70.88,94,11,4.97,ZA,1680219469
484,batemans bay,-35.7167,150.1833,64.09,36,2,1.63,AU,1680219469
485,caconda,-13.7333,15.0667,57.78,100,94,4.05,AO,1680219470
486,comodoro rivadavia,-45.8667,-67.5,44.46,65,0,6.91,AR,1680219324
487,poya,-21.35,165.15,89.94,51,7,0.56,NC,1680219470
488,mucurapo,10.6667,-61.5333,80.65,69,11,20.33,TT,1680219470
489,platanos,37.6667,21.6167,51.08,84,15,3.62,GR,1680219471
490,salmo,49.1999,-117.2689,59.49,72,97,4.32,CA,1680219471
491,angoche,-16.2325,39.9086,71.38,98,100,3.29,MZ,1680219471
492,villa carlos paz,-31.4241,-64.4978,70.83,50,0,8.01,AR,1680219471
493,tutoia,-2.7619,-42.2744,79.23,85,70,9.98,BR,1680219471
494,lorengau,-2.0226,147.2712,80.44,83,96,5.7,PG,1680219950
495,pedernales,18.0384,-71.744,78.4,70,1,4.54,DO,1680219472
496,port hardy,50.6996,-127.4199,46.4,65,75,3.44,CA,1680219472
497,bell ville,-32.6259,-62.6887,70.81,84,90,5.61,AR,1680219472
498,havre de grace,39.5493,-76.0916,48.04,35,0,2.33,US,1680219472
499,kismayo,-0.3582,42.5454,81.27,74,97,13.94,SO,1680219473
500,santa cruz de la palma,28.6835,-17.7642,80.74,18,0,12.66,ES,1680219473
501,mayumba,-3.432,10.6554,77.32,86,95,4.92,GA,1680219473
502,porto novo,6.4965,2.6036,84.02,85,100,7.27,BJ,1680219473
503,karpogory,64.0019,44.4451,31.66,99,100,5.1,RU,1680219474
504,inhambane,-23.865,35.3833,71.46,84,4,2.21,MZ,1680219474
505,qostanay,53.1667,63.5833,26.89,68,0,15.66,KZ,1680219474
506,bud,39.447,-86.1758,62.55,71,8,8.1,US,1680219474
507,dongying,37.4564,118.4856,59.49,33,1,5.53,CN,1680219474
508,sangar,63.9242,127.4739,14.02,87,90,10.36,RU,1680219475
509,guangshui,31.6199,113.9978,60.22,70,7,3.0,CN,1680219475
510,foumban,5.7291,10.9001,71.71,45,47,3.47,CM,1680219475
511,broome,42.2506,-75.833,35.37,58,4,1.01,US,1680219952
512,devils lake,48.1128,-98.8651,24.78,78,0,8.05,US,1680219291
513,tezu,27.9167,96.1667,62.91,55,20,3.98,IN,1680219952
514,carbonia,39.1672,8.5222,53.01,58,28,2.44,IT,1680219476
515,lucea,18.451,-78.1736,82.26,74,0,8.95,JM,1680219476
516,berlevag,70.8578,29.0864,19.35,86,92,19.57,NO,1680219952
517,marzuq,14.4,46.4667,71.58,60,96,11.32,YE,1680219476
518,coelho neto,-4.2567,-43.0128,74.16,98,80,2.91,BR,1680219477
519,kokopo,-4.352,152.2633,82.36,69,99,4.34,PG,1680219477
520,pokrovskoye,47.4157,38.8971,33.26,99,100,18.92,RU,1680219477
521,taitung,22.7583,121.1444,70.07,100,75,1.14,TW,1680219477
522,muriae,-21.1306,-42.3664,74.57,82,93,2.66,BR,1680219189
523,chibombo,-14.6569,28.0706,64.71,95,100,3.78,ZM,1680219477
524,ravar,31.2656,56.8055,61.32,22,0,2.39,IR,1680219478
525,hermon,44.8101,-68.9134,28.69,42,20,11.5,US,1680219478
526,san cristobal,7.7669,-72.225,73.58,78,43,0.96,VE,1680219478
527,lannion,48.75,-3.4167,54.68,85,92,3.0,FR,1680219478
528,phonhong,18.5007,102.4166,76.62,56,88,1.34,LA,1680219479
529,rafaela,-31.2503,-61.4867,73.99,87,50,9.35,AR,1680219479
530,calvinia,-31.4707,19.776,61.39,33,51,6.04,ZA,1680219479
531,bafoulabe,13.8065,-10.8321,93.7,23,93,9.98,ML,1680219479
532,douentza,14.9951,-2.9517,79.61,8,14,4.79,ML,1680219480
533,cervo,43.6702,-7.4101,58.96,72,87,22.39,ES,1680219480
534,mandurah,-32.55,115.7,60.91,88,100,19.8,AU,1680219480
535,along,28.1667,94.7667,58.26,83,71,1.7,IN,1680219480
536,zelenchukskaya,43.858,41.5894,19.89,85,29,5.39,RU,1680219480
537,mizdah,31.4451,12.9801,57.33,36,0,4.38,LY,1680219481
538,adrar,20.5022,-10.0711,79.59,9,8,17.02,MR,1680219955
539,tammisaari,59.9736,23.4339,29.89,87,79,6.38,FI,1680219481
540,beeville,28.4008,-97.7483,78.3,78,40,14.97,US,1680219481
541,tazovskiy,67.4667,78.7,-21.06,100,38,6.17,RU,1680219481
542,kungurtug,50.5994,97.5228,22.33,92,96,7.23,RU,1680219482
543,miles city,46.4083,-105.8406,34.77,75,100,14.97,US,1680219188
544,ozinki,51.1786,49.6769,45.48,78,100,10.67,RU,1680219482
545,jaque,7.5175,-78.1703,79.0,86,71,7.94,PA,1680219482
546,hirara,24.8,125.2833,70.07,83,75,14.97,JP,1680219483
547,padang,-0.9492,100.3543,76.32,81,100,3.51,ID,1680219483
548,sarh,9.1429,18.3923,89.51,40,20,4.61,TD,1680219483
549,acari,-15.4311,-74.6158,78.58,82,52,4.52,PE,1680219483
550,carballo,43.213,-8.691,59.02,83,100,12.93,ES,1680219483
551,fort nelson,58.8053,-122.7002,30.94,84,100,5.01,CA,1680219484
552,caravelas,-17.7125,-39.2481,76.35,78,2,5.77,BR,1680219956
553,shetpe,44.1667,52.1167,41.36,68,43,16.15,KZ,1680219484
554,zarate,-34.0981,-59.0286,69.04,81,65,5.01,AR,1680219484
555,laiyang,36.9758,120.7136,54.82,28,0,3.51,CN,1680219485
556,colac,-38.3333,143.5833,56.17,76,78,8.81,AU,1680219443
557,shalinskoye,55.7228,93.7594,6.91,95,75,6.55,RU,1680219485
558,ternate,0.8,127.4,81.88,75,52,3.2,ID,1680219485
559,kampong thum,12.7111,104.8887,80.49,75,43,6.82,KH,1680219486
560,rybnoye,54.7256,39.5119,35.04,96,100,12.17,RU,1680219486
561,ketou,7.3633,2.5998,81.55,68,75,6.6,BJ,1680219486
562,jalu,29.0331,21.5482,57.52,46,0,10.4,LY,1680219486
563,progreso,21.2833,-89.6667,93.31,83,2,29.37,MX,1680219487
564,west lafayette,40.4259,-86.9081,62.69,31,0,8.05,US,1680219298
565,portland,45.5234,-122.6762,55.99,70,75,14.97,US,1680219224
566,naze,28.3667,129.4833,65.32,91,73,14.83,JP,1680219958
567,beitbridge,-22.2167,30.0,69.98,76,35,12.57,ZW,1680219487
568,pisco,-13.7,-76.2167,77.05,73,75,10.36,PE,1680219881
569,sehore,23.2,77.0833,69.13,66,64,2.3,IN,1680219488
570,zeya,53.75,127.2667,31.01,81,95,5.79,RU,1680219488
571,sheridan,44.8333,-106.9173,36.3,75,100,17.27,US,1680219488
572,sokoni,-6.4333,39.55,81.48,76,17,6.17,TZ,1680219488
573,dunedin,-45.8742,170.5036,64.08,47,93,4.47,NZ,1680219895
574,sungairaya,0.7,108.9,80.91,77,100,4.07,ID,1680219489
575,komsomolskiy,40.4272,71.7189,61.39,54,100,4.18,UZ,1680219489
576,ushtobe,45.2514,77.9838,32.5,48,0,24.0,KZ,1680219489
577,vysokogornyy,50.1167,139.15,32.74,72,88,3.67,RU,1680219489
578,nacimiento,-37.5,-72.6667,63.37,52,58,8.03,CL,1680219490
579,kuytun,54.3419,101.5036,20.28,79,100,16.58,RU,1680219490
580,vila do maio,15.1333,-23.2167,72.39,81,21,9.13,CV,1680219490
581,zhezkazgan,47.8043,67.7144,33.49,58,17,19.62,KZ,1680219490
